name,latitude,longitude,address,place_id,business_status,types,rating,user_ratings_total,queried_type
Tata Power Charging Station,23.3718669,85.3261236,"98CG+PCX, Near Firayalals Pulsar Plaza, Line Tank Rd, Gopal Gunj, Deputy Para, Ahirtoli, Ranchi",ChIJl05H0Q_h9DkR7ayb-emtdro,OPERATIONAL,"point_of_interest, establishment",3.9,11.0,electric_vehicle_charging_station
Statiq Charging Station,23.383625,85.290161,"74A & 74B, Road, inside The Showroom, Mo, Pahartoli, Piska, Ranchi",ChIJUWJaLL7g9DkR9GFq1O1cbfs,OPERATIONAL,"point_of_interest, establishment",2.4,7.0,electric_vehicle_charging_station
Tata Power EZ Charge Charging Station,23.378019,85.31480599999999,"Mall Of Ranchi, Ratu Rd, opp. Akashwani 304, near New Market Chowk, Kumhartoli, Ranchi",ChIJ6_DsCh7h9DkRRpyx4GdKIgM,OPERATIONAL,"point_of_interest, establishment",4.3,11.0,electric_vehicle_charging_station
BPCL Charging Station,23.2814203,85.4142571,"7CJ7+HP6, Ranchi, Ganrke",ChIJ7dffdBcd9TkRQy1s53X6tFA,OPERATIONAL,"point_of_interest, establishment",5.0,1.0,electric_vehicle_charging_station
BPCL Charging Station,23.304501,85.288535,"873Q+RC3 RO AT, 3, CTI Colony, Sector 4, Dhurwa, Ranchi",ChIJ5-APveYf9TkRu0acQX_KV94,OPERATIONAL,"point_of_interest, establishment",,,electric_vehicle_charging_station
Tata Power Charging Station,23.365018,85.310762,"Express Residency Private Limited, 55, Baralal St, Upper Bazar, Ranchi",ChIJ8UjaiP7g9DkR3nE3QBvhVwc,OPERATIONAL,"point_of_interest, establishment",3.0,4.0,electric_vehicle_charging_station
Electric Vehicle Charging Station,23.3476159,85.2809094,"87XJ+29V, Pundag, Ranchi",ChIJv_tWcADh9DkRPYT1nmB5kzU,OPERATIONAL,"point_of_interest, establishment",3.0,3.0,electric_vehicle_charging_station
Ather Grid Charging Station,23.3872996,85.33611309999999,"Indane Opp. Road, Karam Toli Chowk, near Bariatu Road, Karamtoli, M.V, Car, Ranchi",ChIJ4fMwc_7h9DkR5ezM43KP3lI,OPERATIONAL,"point_of_interest, establishment",2.6,5.0,electric_vehicle_charging_station
Tata Power Charging Station,23.371302,85.350737,"99C2+G7H Basudeb Auto, Kokar Industrial Area, Shanti Nagar, Ranchi",ChIJu4KZlnzh9DkRuaXSwtvS8g8,OPERATIONAL,"point_of_interest, establishment",,,electric_vehicle_charging_station
Electric Vehicle Charging Station,23.3852133,85.28716,"97PP+3VM, Shahdeo Nagar, Panchsheel Colony, Ranchi",ChIJww3nCgDh9DkRkcf591VEwRA,OPERATIONAL,"point_of_interest, establishment",3.5,2.0,electric_vehicle_charging_station
Kia Charging Station,23.3477097,85.2811219,"Khata No 21, Horizon Cars LLPRS, Plot No 3985, Pundag Rd, Pundag, Ranchi",ChIJl5oLFUzg9DkRFjtEB8AfZCs,OPERATIONAL,"point_of_interest, establishment",,,electric_vehicle_charging_station
Ather Grid Charging Station,23.3585189,85.30865519999999,"Sahajanand Chowk, Plot No H-117, Harmu Housing Colony, P.S, Argora, Ranchi",ChIJkUIX4FXg9DkRhzelMrrJb0M,OPERATIONAL,"point_of_interest, establishment",5.0,13.0,electric_vehicle_charging_station
Ather charging station,23.3526794,85.298733,"972X+WCM, Harmu Housing Colony, Argora, Ranchi",ChIJj2OZcQDh9DkRXX20ke_69Zk,OPERATIONAL,"point_of_interest, establishment",4.8,4.0,electric_vehicle_charging_station
Ather Grid Charging Station,23.309814,85.31707,"oppo hp petrol pump, Royal heights, mahara toli, near Hatia Main Road, Singh More, Maharatoli, Ranchi",ChIJfeDxTCoe9TkR0oNM196lXaA,OPERATIONAL,"point_of_interest, establishment",4.3,3.0,electric_vehicle_charging_station
Ather Grid Charging Station,23.4126181,85.403089,"Jungli Restaurant, Nandshila, Hazaribagh Rd, near Jumar Bridge",ChIJHztMD4Dl9DkR-x3R0tUOX7k,OPERATIONAL,"point_of_interest, establishment",3.7,3.0,electric_vehicle_charging_station
Ather Grid Charging Station,23.3621798,85.3069302,"9864+VQ8, imli chowk, near apna super mart trust Multispeciality Hospital, Harmu Housing Colony, Harmu, Ranchi",ChIJdaclHfng9DkRAtArVTVaOF0,OPERATIONAL,"point_of_interest, establishment",4.0,4.0,electric_vehicle_charging_station
Ather Grid Charging Station,23.2905236,85.2367606,"76RP+6P2 SMOKER'S CAFE AND RESTAURANT, Sembo, Ranchi Ring Rd, near crpf camp, Dhurwa, Ranchi",ChIJWZ0Kjywh9TkRDDhh_tk-jPk,OPERATIONAL,"point_of_interest, establishment",1.0,1.0,electric_vehicle_charging_station
Ather Grid Charging Station,23.3710728,85.31375729999999,"98C7+CFH, Agrasen Path, Upper Bazar, Ranchi",ChIJUWKwpwLh9DkRlbxeA8_XsOM,OPERATIONAL,"point_of_interest, establishment",3.0,2.0,electric_vehicle_charging_station
Tata Power Charging Station,23.3730773,85.3509302,"14p, Next To Prabhat Khabar, 11, Kokar Industrial Area, Shanti Nagar, Ranchi",ChIJe87XSmPh9DkRdEORdpuUo5g,OPERATIONAL,"point_of_interest, establishment",4.5,4.0,electric_vehicle_charging_station
Ola Charging Station,23.3617099,85.34153150000002,"986R+PH2 Bharat Petroleum, Old Hazaribagh Rd, Dhumsatoli, Kathartoli, Old Hazaribagh Rd, Dangartoli, Nayatoli, Ranchi",ChIJq7LNYQDh9DkR6x10eWz0gAA,OPERATIONAL,"point_of_interest, establishment",2.2,12.0,electric_vehicle_charging_station
Ather Grid Charging Station,23.265146,85.3047,"7883+3V4, River View Colony, Kumbatoli, Tupudana, Ranchi",ChIJf8ooIqgf9TkRcr-wSbhiJl8,OPERATIONAL,"point_of_interest, establishment",,,electric_vehicle_charging_station
Ather Grid Charging Station,23.3733397,85.35225700000001,"Jeep service centre, 51, K P, Kokar Industrial Area, Shanti Nagar, Ranchi",ChIJJ9_rvB_h9DkRzspCF0VKGpU,OPERATIONAL,"point_of_interest, establishment",3.5,6.0,electric_vehicle_charging_station
Ather Grid Charging Station,23.3649564,85.3107258,"Plot no 591, City Mall, Harmu Rd, Kumhartoli, Ranchi",ChIJd5djpFjh9DkRZgjhrGj0aKM,OPERATIONAL,"point_of_interest, establishment",5.0,2.0,electric_vehicle_charging_station
Ather Grid Charging Station,23.2876377,85.31348919999999,"be sure, sainik canteen, Oberia Rd, near nandan palace, Patel Nagar, Hatia, Ranchi",ChIJ0S3RVbUf9TkRBum4bpzUypA,OPERATIONAL,"point_of_interest, establishment",4.0,1.0,electric_vehicle_charging_station
Quantum EV Charging Station,23.352965,85.2336717,"Quantum ARUN E MOTORS Heritage Nagar, Lalgutuwa, Itki Rd, Ranchi",ChIJQxILn0vf9DkRaLRKJAigblI,OPERATIONAL,"car_repair, store, point_of_interest, establishment",5.0,2.0,electric_vehicle_charging_station
ChargeZone Charging Station,23.3517539,85.3243095,"Chakla, Ormanjhi, 33, National Highway, Hindpiri, Ranchi",ChIJU6fAG3Ph9DkRzwZHWP_vdUY,OPERATIONAL,"point_of_interest, establishment",,,electric_vehicle_charging_station
Ather Grid Charging Station,23.37196,85.3313201,"2ND & 3RD FLOOR, DAMYANTIKA COMPLEX, East Jail Road, Ranchi",ChIJI4dohA3h9DkR8nEIeXe5gwQ,OPERATIONAL,"point_of_interest, establishment",3.0,4.0,electric_vehicle_charging_station
Brinnam Energy,23.3500548,85.3058649,"LGF Sai Arcade, Ashok Nagar Rd, Central Ashoka Colony, Harmu Housing Colony, Delatoli, Ranchi",ChIJqenPfm_h9DkRWvjgf_IeixA,OPERATIONAL,"point_of_interest, establishment",,,electric_vehicle_charging_station
The Ranchi E-Wheels,23.3758575,85.3515247,"Chanchal Complex, Sadhu Maidan, Old, Hazaribagh Rd, Kokar Industrial Area, Kokar, Ranchi",ChIJYc2FT5Ph9DkRg8ih6NVXsUc,OPERATIONAL,"car_repair, store, point_of_interest, establishment",5.0,10.0,electric_vehicle_charging_station
